{"cities":[{"href":"/atlanta/","name":"Atlanta","count":292,"lat":33.81898408363013,"lng":-84.39268005051372},{"href":"/savannah/","name":"Savannah","count":114,"lat":32.06811222289475,"lng":-81.15029766719293},{"href":"/macon/","name":"Macon","count":105,"lat":32.84652644638095,"lng":-83.66336698971429},{"href":"/albany/","name":"Albany","count":103,"lat":31.585803430097094,"lng":-84.17161048951455},{"href":"/augusta/","name":"Augusta","count":99,"lat":33.47288740525253,"lng":-82.04823549757576},{"href":"/alpharetta/","name":"Alpharetta","count":86,"lat":34.08985581523256,"lng":-84.25888664779072},{"href":"/columbus/","name":"Columbus","count":86,"lat":32.49286416534885,"lng":-84.93533591360465},{"href":"/marietta/","name":"Marietta","count":85,"lat":33.9551337295294,"lng":-84.51624908470589},{"href":"/brunswick/","name":"Brunswick","count":76,"lat":31.210889239078963,"lng":-81.50299714723685},{"href":"/cumming/","name":"Cumming","count":62,"lat":34.212667342419344,"lng":-84.15839779758063},{"href":"/lawrenceville/","name":"Lawrenceville","count":56,"lat":33.964002404821436,"lng":-83.99522304517858},{"href":"/statesboro/","name":"Statesboro","count":54,"lat":32.437497245370366,"lng":-81.78523918555555},{"href":"/warner-robins/","name":"Warner Robins","count":54,"lat":32.60298248537036,"lng":-83.65424474129628},{"href":"/norcross/","name":"Norcross","count":51,"lat":33.94128440392157,"lng":-84.20371740058822},{"href":"/roswell/","name":"Roswell","count":46,"lat":34.039082568695655,"lng":-84.34659062217389},{"href":"/valdosta/","name":"Valdosta","count":42,"lat":30.865936869523814,"lng":-83.2812338328571},{"href":"/evans/","name":"Evans","count":41,"lat":33.54322321829269,"lng":-82.13956767707317},{"href":"/gainesville/","name":"Gainesville","count":40,"lat":34.29028358475,"lng":-83.858900643},{"href":"/loganville/","name":"Loganville","count":40,"lat":33.84060821525,"lng":-83.89926185600001},{"href":"/newnan/","name":"Newnan","count":40,"lat":33.380257130000004,"lng":-84.77343444800002},{"href":"/pooler/","name":"Pooler","count":39,"lat":32.11127149076923,"lng":-81.26063615897436},{"href":"/canton/","name":"Canton","count":36,"lat":34.21968735749999,"lng":-84.46800062388888},{"href":"/conyers/","name":"Conyers","count":36,"lat":33.65646563638889,"lng":-84.01826688999998},{"href":"/mcdonough/","name":"McDonough","count":36,"lat":33.44657092611112,"lng":-84.15059089722222},{"href":"/woodstock/","name":"Woodstock","count":35,"lat":34.104004016000005,"lng":-84.50187988200001},{"href":"/hinesville/","name":"Hinesville","count":34,"lat":31.83079579411764,"lng":-81.60955047676472},{"href":"/tifton/","name":"Tifton","count":34,"lat":31.437573264705883,"lng":-83.50307823617648},{"href":"/acworth/","name":"Acworth","count":33,"lat":34.05954326303031,"lng":-84.67419202333333},{"href":"/douglasville/","name":"Douglasville","count":33,"lat":33.741546284242425,"lng":-84.72631835878786},{"href":"/thomasville/","name":"Thomasville","count":33,"lat":30.855706937575757,"lng":-83.98020819424241},{"href":"/dallas/","name":"Dallas","count":32,"lat":33.86043208781249,"lng":-84.75764870656248},{"href":"/buford/","name":"Buford","count":31,"lat":34.11461048709678,"lng":-83.97460568354839},{"href":"/dublin/","name":"Dublin","count":31,"lat":32.52745757580646,"lng":-82.91810238709677},{"href":"/waycross/","name":"Waycross","count":31,"lat":31.21918284548387,"lng":-82.35864602258064},{"href":"/leesburg/","name":"Leesburg","count":30,"lat":31.674216144666666,"lng":-84.19478810566666},{"href":"/richmond-hill/","name":"Richmond Hill","count":30,"lat":31.92008781433333,"lng":-81.31067276066665},{"href":"/st-simons-island/","name":"St Simons Island","count":30,"lat":31.172949599999995,"lng":-81.38346303299997},{"href":"/suwanee/","name":"Suwanee","count":30,"lat":34.05618247966667,"lng":-84.08788808233332},{"href":"/athens/","name":"Athens","count":29,"lat":33.953576845172414,"lng":-83.40109831827584},{"href":"/kennesaw/","name":"Kennesaw","count":29,"lat":34.02887857413793,"lng":-84.60858259551725},{"href":"/milledgeville/","name":"Milledgeville","count":29,"lat":33.116864828275865,"lng":-83.25006735000001},{"href":"/dalton/","name":"Dalton","count":28,"lat":34.77656963892857,"lng":-84.96463584892858},{"href":"/douglas/","name":"Douglas","count":28,"lat":31.494005407142854,"lng":-82.86286572035715},{"href":"/sandy-springs/","name":"Sandy Springs","count":27,"lat":33.9320851074074,"lng":-84.37267586037036},{"href":"/grovetown/","name":"Grovetown","count":25,"lat":33.46863433879999,"lng":-82.2095941164},{"href":"/fayetteville/","name":"Fayetteville","count":24,"lat":33.48432524958334,"lng":-84.45496368416667},{"href":"/griffin/","name":"Griffin","count":24,"lat":33.23054790458334,"lng":-84.26169713291667},{"href":"/jesup/","name":"Jesup","count":24,"lat":31.613674163749995,"lng":-81.89912732416667},{"href":"/peachtree-city/","name":"Peachtree City","count":24,"lat":33.39228312291667,"lng":-84.57273610416668},{"href":"/duluth/","name":"Duluth","count":22,"lat":33.99521862409092,"lng":-84.12785374045454},{"href":"/lagrange/","name":"LaGrange","count":22,"lat":33.03240828181818,"lng":-85.01257740272727},{"href":"/stockbridge/","name":"Stockbridge","count":22,"lat":33.503625349545466,"lng":-84.2673977940909},{"href":"/byron/","name":"Byron","count":21,"lat":32.63644917809523,"lng":-83.74924832333333},{"href":"/cartersville/","name":"Cartersville","count":21,"lat":34.18214943333333,"lng":-84.80973670619049},{"href":"/moultrie/","name":"Moultrie","count":21,"lat":31.15882274047619,"lng":-83.7498045409524},{"href":"/perry/","name":"Perry","count":21,"lat":32.468289511428566,"lng":-83.72994341142856},{"href":"/bloomingdale/","name":"Bloomingdale","count":20,"lat":32.110532188499995,"lng":-81.315596008},{"href":"/martinez/","name":"Martinez","count":20,"lat":33.514223862,"lng":-82.09934959399999},{"href":"/rincon/","name":"Rincon","count":20,"lat":32.291950798,"lng":-81.23222847049999},{"href":"/vidalia/","name":"Vidalia","count":20,"lat":32.223420906499996,"lng":-82.40175895649999},{"href":"/decatur/","name":"Decatur","count":19,"lat":33.775090870526306,"lng":-84.2772959673684},{"href":"/ellijay/","name":"Ellijay","count":19,"lat":34.67230746578947,"lng":-84.50379020263158},{"href":"/locust-grove/","name":"Locust Grove","count":19,"lat":33.35065781368421,"lng":-84.12662506052631},{"href":"/powder-springs/","name":"Powder Springs","count":19,"lat":33.880091416315786,"lng":-84.68393546684212},{"href":"/ringgold/","name":"Ringgold","count":19,"lat":34.92340629999999,"lng":-85.15039182947369},{"href":"/tucker/","name":"Tucker","count":19,"lat":33.85108987947368,"lng":-84.21726106421053},{"href":"/smyrna/","name":"Smyrna","count":18,"lat":33.86769549055556,"lng":-84.50880559277778},{"href":"/dacula/","name":"Dacula","count":17,"lat":33.99375040352941,"lng":-83.8863592717647},{"href":"/eatonton/","name":"Eatonton","count":17,"lat":33.311893912352936,"lng":-83.31095257882353},{"href":"/flowery-branch/","name":"Flowery Branch","count":17,"lat":34.17812975647058,"lng":-83.89800711117647},{"href":"/blairsville/","name":"Blairsville","count":16,"lat":34.875805379375,"lng":-83.99439001125},{"href":"/kingsland/","name":"Kingsland","count":16,"lat":30.797629834375,"lng":-81.67460250874998},{"href":"/austell/","name":"Austell","count":15,"lat":33.80947265533334,"lng":-84.60923767133333},{"href":"/chamblee/","name":"Chamblee","count":15,"lat":33.895942178666665,"lng":-84.30086415466667},{"href":"/covington/","name":"Covington","count":15,"lat":33.58748397866666,"lng":-83.87645212866666},{"href":"/johns-creek/","name":"Johns Creek","count":15,"lat":34.028866068666666,"lng":-84.19578450600001},{"href":"/snellville/","name":"Snellville","count":15,"lat":33.84709803266666,"lng":-84.01814676866667},{"href":"/stone-mountain/","name":"Stone Mountain","count":15,"lat":33.798838298,"lng":-84.14949442466668},{"href":"/cordele/","name":"Cordele","count":14,"lat":31.973414284999997,"lng":-83.76872907357144},{"href":"/fairburn/","name":"Fairburn","count":14,"lat":33.55759811428572,"lng":-84.59659903428572},{"href":"/fitzgerald/","name":"Fitzgerald","count":14,"lat":31.723256111428572,"lng":-83.24639402071429},{"href":"/monroe/","name":"Monroe","count":14,"lat":33.81292642785714,"lng":-83.7362730842857},{"href":"/rome/","name":"Rome","count":14,"lat":34.26274381428571,"lng":-85.18806185000001},{"href":"/winder/","name":"Winder","count":14,"lat":33.99482727071428,"lng":-83.73974227928571},{"href":"/americus/","name":"Americus","count":13,"lat":32.07829108538461,"lng":-84.21666071846154},{"href":"/blackshear/","name":"Blackshear","count":13,"lat":31.281855803076915,"lng":-82.26529517615384},{"href":"/dahlonega/","name":"Dahlonega","count":13,"lat":34.52881563538462,"lng":-83.97124892153846},{"href":"/dawsonville/","name":"Dawsonville","count":13,"lat":34.37345416769231,"lng":-84.06661048307693},{"href":"/guyton/","name":"Guyton","count":13,"lat":32.24133594230769,"lng":-81.3381558923077},{"href":"/hampton/","name":"Hampton","count":13,"lat":33.43173188461538,"lng":-84.30642289384615},{"href":"/hazlehurst/","name":"Hazlehurst","count":13,"lat":31.867931805384618,"lng":-82.57385312615384},{"href":"/lafayette/","name":"LaFayette","count":13,"lat":34.71975766769231,"lng":-85.23691852307692},{"href":"/sandersville/","name":"Sandersville","count":13,"lat":32.983312167692304,"lng":-82.82617070153846},{"href":"/thomson/","name":"Thomson","count":13,"lat":33.49576715384616,"lng":-82.49416996769232},{"href":"/villa-rica/","name":"Villa Rica","count":13,"lat":33.739832073076926,"lng":-84.91208942230767},{"href":"/baxley/","name":"Baxley","count":12,"lat":31.77702967416666,"lng":-82.35830752166666},{"href":"/blue-ridge/","name":"Blue Ridge","count":12,"lat":34.873422622499994,"lng":-84.33664512416665},{"href":"/carrollton/","name":"Carrollton","count":12,"lat":33.582772256666665,"lng":-85.0814158125},{"href":"/fort-valley/","name":"Fort Valley","count":12,"lat":32.556025823333336,"lng":-83.83390363},{"href":"/hahira/","name":"Hahira","count":12,"lat":30.98054107,"lng":-83.37196286499999},{"href":"/jasper/","name":"Jasper","count":12,"lat":34.449535051666665,"lng":-84.4274590825},{"href":"/jefferson/","name":"Jefferson","count":12,"lat":34.10473251416666,"lng":-83.61318206583333},{"href":"/jonesboro/","name":"Jonesboro","count":12,"lat":33.51494312250001,"lng":-84.36197090083333},{"href":"/kathleen/","name":"Kathleen","count":12,"lat":32.52671718583334,"lng":-83.64053598916665},{"href":"/ludowici/","name":"Ludowici","count":12,"lat":31.7554473875,"lng":-81.727609},{"href":"/midway/","name":"Midway","count":12,"lat":31.797306220000007,"lng":-81.37708218833335},{"href":"/peachtree-corners/","name":"Peachtree Corners","count":12,"lat":33.96055221416667,"lng":-84.22642262750001},{"href":"/hawkinsville/","name":"Hawkinsville","count":11,"lat":32.29875876545455,"lng":-83.50422321636363},{"href":"/lithonia/","name":"Lithonia","count":11,"lat":33.72964338727272,"lng":-84.11408996454544},{"href":"/morrow/","name":"Morrow","count":11,"lat":33.583028967272725,"lng":-84.33892752999999},{"href":"/rossville/","name":"Rossville","count":11,"lat":34.96201185727273,"lng":-85.26307123272727},{"href":"/st-marys/","name":"St Marys","count":11,"lat":30.774175123636358,"lng":-81.57498862454545},{"href":"/tyrone/","name":"Tyrone","count":11,"lat":33.474951657272726,"lng":-84.59207153363637},{"href":"/watkinsville/","name":"Watkinsville","count":11,"lat":33.844562531818184,"lng":-83.51233603818183},{"href":"/ball-ground/","name":"Ball Ground","count":10,"lat":34.332802582,"lng":-84.36104660000001},{"href":"/bogart/","name":"Bogart","count":10,"lat":33.940592575000004,"lng":-83.519725035},{"href":"/bonaire/","name":"Bonaire","count":10,"lat":32.55526428200001,"lng":-83.625071717},{"href":"/braselton/","name":"Braselton","count":10,"lat":34.11861,"lng":-83.790440369},{"href":"/gray/","name":"Gray","count":10,"lat":32.987459563,"lng":-83.557189941},{"href":"/greensboro/","name":"Greensboro","count":10,"lat":33.513146592,"lng":-83.204935457},{"href":"/hoschton/","name":"Hoschton","count":10,"lat":34.083000565,"lng":-83.75426254300001},{"href":"/nashville/","name":"Nashville","count":10,"lat":31.188852119,"lng":-83.223054504},{"href":"/thomaston/","name":"Thomaston","count":10,"lat":32.89781723,"lng":-84.327998354},{"href":"/adel/","name":"Adel","count":9,"lat":31.117993461111112,"lng":-83.42921532555555},{"href":"/calhoun/","name":"Calhoun","count":9,"lat":34.49382570111111,"lng":-84.94488271111112},{"href":"/elberton/","name":"Elberton","count":9,"lat":34.13403023666666,"lng":-82.88518354666667},{"href":"/mableton/","name":"Mableton","count":9,"lat":33.81810082444445,"lng":-84.54895697777778},{"href":"/metter/","name":"Metter","count":9,"lat":32.40801154333333,"lng":-82.03961012111112},{"href":"/senoia/","name":"Senoia","count":9,"lat":33.30762057888889,"lng":-84.57464938666665},{"href":"/sharpsburg/","name":"Sharpsburg","count":9,"lat":33.36712434555555,"lng":-84.65399594000002},{"href":"/union-city/","name":"Union City","count":9,"lat":33.58202150222222,"lng":-84.54560427999999},{"href":"/washington/","name":"Washington","count":9,"lat":33.73000844333333,"lng":-82.73326534777777},{"href":"/appling/","name":"Appling","count":8,"lat":33.587447167499995,"lng":-82.34139728624999},{"href":"/brookhaven/","name":"Brookhaven","count":8,"lat":33.87918710875,"lng":-84.33456611625},{"href":"/chatsworth/","name":"Chatsworth","count":8,"lat":34.78535366125,"lng":-84.81105232374999},{"href":"/clarkesville/","name":"Clarkesville","count":8,"lat":34.67553472624999,"lng":-83.55288123999999},{"href":"/dunwoody/","name":"Dunwoody","count":8,"lat":33.936508178749996,"lng":-84.31814003},{"href":"/east-dublin/","name":"East Dublin","count":8,"lat":32.5805716525,"lng":-82.82192707125},{"href":"/forsyth/","name":"Forsyth","count":8,"lat":33.069881438749995,"lng":-83.95224094624999},{"href":"/hiawassee/","name":"Hiawassee","count":8,"lat":34.956244945,"lng":-83.75496578125},{"href":"/lilburn/","name":"Lilburn","count":8,"lat":33.88694095625,"lng":-84.12799548999999},{"href":"/lincolnton/","name":"Lincolnton","count":8,"lat":33.80071926125001,"lng":-82.4509181975},{"href":"/montezuma/","name":"Montezuma","count":8,"lat":32.29762411,"lng":-83.995407105},{"href":"/pembroke/","name":"Pembroke","count":8,"lat":32.20361184875,"lng":-81.66394329125},{"href":"/port-wentworth/","name":"Port Wentworth","count":8,"lat":32.190011025,"lng":-81.19540500625},{"href":"/south-fulton/","name":"South Fulton","count":8,"lat":33.62359952875,"lng":-84.54819869875},{"href":"/sugar-hill/","name":"Sugar Hill","count":8,"lat":34.099059105,"lng":-84.0461626075},{"href":"/townsend/","name":"Townsend","count":8,"lat":31.58934760125,"lng":-81.35549259125},{"href":"/bainbridge/","name":"Bainbridge","count":7,"lat":30.913410459999998,"lng":-84.57869829714286},{"href":"/cleveland/","name":"Cleveland","count":7,"lat":34.58056313714285,"lng":-83.73469543428573},{"href":"/east-point/","name":"East Point","count":7,"lat":33.67815399142857,"lng":-84.45505850714285},{"href":"/gordon/","name":"Gordon","count":7,"lat":32.89489582714286,"lng":-83.32184600857144},{"href":"/harlem/","name":"Harlem","count":7,"lat":33.42256927571428,"lng":-82.31100790714287},{"href":"/jackson/","name":"Jackson","count":7,"lat":33.30277361142857,"lng":-83.96551513714287},{"href":"/milton/","name":"Milton","count":7,"lat":34.122461047142856,"lng":-84.32145146142857},{"href":"/nicholls/","name":"Nicholls","count":7,"lat":31.517043522857144,"lng":-82.63581194285715},{"href":"/palmetto/","name":"Palmetto","count":7,"lat":33.516239711428575,"lng":-84.66947936999999},{"href":"/patterson/","name":"Patterson","count":7,"lat":31.397997992857142,"lng":-82.12324196857142},{"href":"/swainsboro/","name":"Swainsboro","count":7,"lat":32.589848655714285,"lng":-82.32774898142858},{"href":"/cairo/","name":"Cairo","count":6,"lat":30.87957827166667,"lng":-84.18050130166667},{"href":"/claxton/","name":"Claxton","count":6,"lat":32.14135996666666,"lng":-81.90505345666666},{"href":"/commerce/","name":"Commerce","count":6,"lat":34.211637495,"lng":-83.45291646166667},{"href":"/hortense/","name":"Hortense","count":6,"lat":31.310674031666665,"lng":-81.86913299333334},{"href":"/lakeland/","name":"Lakeland","count":6,"lat":31.03980255,"lng":-83.10413614833334},{"href":"/rockmart/","name":"Rockmart","count":6,"lat":33.98185857,"lng":-85.038763685},{"href":"/sparta/","name":"Sparta","count":6,"lat":33.21582412833333,"lng":-83.03335825833334},{"href":"/sylvania/","name":"Sylvania","count":6,"lat":32.613321938333335,"lng":-81.72279866333334},{"href":"/toccoa/","name":"Toccoa","count":6,"lat":34.57677459666667,"lng":-83.31824366333332},{"href":"/alma/","name":"Alma","count":5,"lat":31.555743028000002,"lng":-82.457611084},{"href":"/buena-vista/","name":"Buena Vista","count":5,"lat":32.315429686,"lng":-84.51948394600001},{"href":"/chickamauga/","name":"Chickamauga","count":5,"lat":34.87780532800001,"lng":-85.293769836},{"href":"/doraville/","name":"Doraville","count":5,"lat":33.90932083,"lng":-84.265747072},{"href":"/eastman/","name":"Eastman","count":5,"lat":32.20651092600001,"lng":-83.183944702},{"href":"/ellabell/","name":"Ellabell","count":5,"lat":32.161094664000004,"lng":-81.507400512},{"href":"/ellenwood/","name":"Ellenwood","count":5,"lat":33.61877594,"lng":-84.234477234},{"href":"/glennville/","name":"Glennville","count":5,"lat":31.920047376000003,"lng":-81.92205505199999},{"href":"/hiram/","name":"Hiram","count":5,"lat":33.885353088,"lng":-84.75433502199999},{"href":"/homerville/","name":"Homerville","count":5,"lat":31.062272262,"lng":-82.763041688},{"href":"/lithia-springs/","name":"Lithia Springs","count":5,"lat":33.766690828,"lng":-84.656883238},{"href":"/madison/","name":"Madison","count":5,"lat":33.608450317999996,"lng":-83.49515686},{"href":"/monticello/","name":"Monticello","count":5,"lat":33.300205996,"lng":-83.739289856},{"href":"/ray-city/","name":"Ray City","count":5,"lat":31.060124206,"lng":-83.203308106},{"href":"/riverdale/","name":"Riverdale","count":5,"lat":33.554184722,"lng":-84.401167298},{"href":"/thalmann/","name":"Thalmann","count":5,"lat":31.23585701,"lng":-81.623263548},{"href":"/wrightsville/","name":"Wrightsville","count":5,"lat":32.724569702,"lng":-82.73260192800001},{"href":"/wrens/","name":"Wrens","count":5,"lat":33.201965334,"lng":-82.38919067399999}],"counties":[{"href":"/county/fulton/","name":"Fulton County","count":524,"lat":33.87659733156486,"lng":-84.37441094952293},{"href":"/county/gwinnett/","name":"Gwinnett County","count":254,"lat":33.98752730649605,"lng":-84.06674933267715},{"href":"/county/cobb/","name":"Cobb County","count":210,"lat":33.941233553190486,"lng":-84.57360302161904},{"href":"/county/chatham/","name":"Chatham County","count":186,"lat":32.08685495516127,"lng":-81.19444935317196},{"href":"/county/glynn/","name":"Glynn County","count":113,"lat":31.201069806548666,"lng":-81.47557034097348},{"href":"/county/dekalb/","name":"DeKalb County","count":113,"lat":33.81993335964602,"lng":-84.23971652150438},{"href":"/county/dougherty/","name":"Dougherty County","count":105,"lat":31.58653437295239,"lng":-84.17120027076187},{"href":"/county/bibb/","name":"Bibb County","count":105,"lat":32.84652644638095,"lng":-83.66336698971429},{"href":"/county/houston/","name":"Houston County","count":104,"lat":32.55539710682693,"lng":-83.66878626903846},{"href":"/county/richmond/","name":"Richmond County","count":102,"lat":33.47063576941177,"lng":-82.04968403764705},{"href":"/county/columbia/","name":"Columbia County","count":101,"lat":33.51415891019802,"lng":-82.17680547712871},{"href":"/county/henry/","name":"Henry County","count":90,"lat":33.43812582211111,"lng":-84.19659330599997},{"href":"/county/muscogee/","name":"Muscogee County","count":89,"lat":32.48597130101125,"lng":-84.91346929337078},{"href":"/county/cherokee/","name":"Cherokee County","count":87,"lat":34.187275109195404,"lng":-84.47368674402301},{"href":"/county/hall/","name":"Hall County","count":68,"lat":34.274037753676474,"lng":-83.87070150926472},{"href":"/county/forsyth/","name":"Forsyth County","count":64,"lat":34.206389308125,"lng":-84.16122007359374},{"href":"/county/coweta/","name":"Coweta County","count":64,"lat":33.36043816828125,"lng":-84.72783744343751},{"href":"/county/fayette/","name":"Fayette County","count":62,"lat":33.43649113596775,"lng":-84.52601180548388},{"href":"/county/bulloch/","name":"Bulloch County","count":61,"lat":32.43286501836066,"lng":-81.78602450114754},{"href":"/county/walton/","name":"Walton County","count":58,"lat":33.82682464827587,"lng":-83.84379959086206},{"href":"/county/lowndes/","name":"Lowndes County","count":57,"lat":30.893169938421053,"lng":-83.29438139263158},{"href":"/county/liberty/","name":"Liberty County","count":51,"lat":31.820622276666658,"lng":-81.5509483490196},{"href":"/county/jackson/","name":"Jackson County","count":44,"lat":34.13125220204545,"lng":-83.66340220977273},{"href":"/county/laurens/","name":"Laurens County","count":44,"lat":32.53031886749999,"lng":-82.90495889795456},{"href":"/county/bryan/","name":"Bryan County","count":43,"lat":32.00086052418604,"lng":-81.39927283046512},{"href":"/county/tift/","name":"Tift County","count":42,"lat":31.439307030952374,"lng":-83.52025931214287},{"href":"/county/douglas/","name":"Douglas County","count":40,"lat":33.73907632849999,"lng":-84.722471618},{"href":"/county/coffee/","name":"Coffee County","count":38,"lat":31.506946563421053,"lng":-82.82839483973686},{"href":"/county/effingham/","name":"Effingham County","count":38,"lat":32.28599217052631,"lng":-81.27824060552634},{"href":"/county/paulding/","name":"Paulding County","count":38,"lat":33.864101961578946,"lng":-84.76283525184208},{"href":"/county/thomas/","name":"Thomas County","count":37,"lat":30.870441746216212,"lng":-83.96273061351351},{"href":"/county/bartow/","name":"Bartow County","count":36,"lat":34.20566431666667,"lng":-84.82944552138888},{"href":"/county/walker/","name":"Walker County","count":36,"lat":34.84777747249999,"lng":-85.26860321833334},{"href":"/county/rockdale/","name":"Rockdale County","count":36,"lat":33.65646563638889,"lng":-84.01826688999998},{"href":"/county/clayton/","name":"Clayton County","count":35,"lat":33.561345672571434,"lng":-84.35457567514284},{"href":"/county/peach/","name":"Peach County","count":33,"lat":32.60720432181817,"lng":-83.78003207121212},{"href":"/county/lee/","name":"Lee County","count":33,"lat":31.685130785454543,"lng":-84.18953057454544},{"href":"/county/ware/","name":"Ware County","count":33,"lat":31.22199468939394,"lng":-82.37585264151517},{"href":"/county/baldwin/","name":"Baldwin County","count":31,"lat":33.11015381258065,"lng":-83.24792062161292},{"href":"/county/whitfield/","name":"Whitfield County","count":31,"lat":34.778339878387094,"lng":-84.9751385103226},{"href":"/county/wayne/","name":"Wayne County","count":30,"lat":31.61330979666667,"lng":-81.92256520566666},{"href":"/county/clarke/","name":"Clarke County","count":29,"lat":33.953576845172414,"lng":-83.40109831827584},{"href":"/county/camden/","name":"Camden County","count":29,"lat":30.79459321965517,"lng":-81.63778712827586},{"href":"/county/carroll/","name":"Carroll County","count":28,"lat":33.65407903,"lng":-84.98750632214286},{"href":"/county/troup/","name":"Troup County","count":28,"lat":33.04282583571428,"lng":-85.01512145892858},{"href":"/county/toombs/","name":"Toombs County","count":25,"lat":32.20168525719999,"lng":-82.38209075920003},{"href":"/county/colquitt/","name":"Colquitt County","count":25,"lat":31.176243972400002,"lng":-83.74465423480002},{"href":"/county/oconee/","name":"Oconee County","count":24,"lat":33.883964857083335,"lng":-83.51392650583334},{"href":"/county/spalding/","name":"Spalding County","count":24,"lat":33.23054790458334,"lng":-84.26169713291667},{"href":"/county/barrow/","name":"Barrow County","count":23,"lat":33.989255656521735,"lng":-83.73911550782609},{"href":"/county/pierce/","name":"Pierce County","count":23,"lat":31.34156434391304,"lng":-82.21430140000001},{"href":"/county/catoosa/","name":"Catoosa County","count":22,"lat":34.924978949999996,"lng":-85.15883289681818},{"href":"/county/gilmer/","name":"Gilmer County","count":21,"lat":34.67201505333333,"lng":-84.50187646714285},{"href":"/county/union/","name":"Union County","count":19,"lat":34.88394767473685,"lng":-84.00439493315788},{"href":"/county/newton/","name":"Newton County","count":19,"lat":33.57917805789473,"lng":-83.85550368526314},{"href":"/county/washington/","name":"Washington County","count":19,"lat":32.97663036263159,"lng":-82.81873361736844},{"href":"/county/sumter/","name":"Sumter County","count":18,"lat":32.077770019999996,"lng":-84.19612248611111},{"href":"/county/putnam/","name":"Putnam County","count":17,"lat":33.311893912352936,"lng":-83.31095257882353},{"href":"/county/berrien/","name":"Berrien County","count":16,"lat":31.160759209999995,"lng":-83.21635770812499},{"href":"/county/mcduffie/","name":"McDuffie County","count":16,"lat":33.476739406875,"lng":-82.47787094062501},{"href":"/county/cook/","name":"Cook County","count":15,"lat":31.16861496,"lng":-83.43820546466665},{"href":"/county/harris/","name":"Harris County","count":15,"lat":32.70060221333333,"lng":-84.86616516133333},{"href":"/county/floyd/","name":"Floyd County","count":15,"lat":34.252372742000006,"lng":-85.19101918533333},{"href":"/county/crisp/","name":"Crisp County","count":14,"lat":31.973414284999997,"lng":-83.76872907357144},{"href":"/county/monroe/","name":"Monroe County","count":14,"lat":33.02004241857143,"lng":-83.92229788714285},{"href":"/county/ben-hill/","name":"Ben Hill County","count":14,"lat":31.723256111428572,"lng":-83.24639402071429},{"href":"/county/wilkinson/","name":"Wilkinson County","count":14,"lat":32.87547765428572,"lng":-83.25969096642856},{"href":"/county/fannin/","name":"Fannin County","count":13,"lat":34.87652558538461,"lng":-84.33195730153845},{"href":"/county/tattnall/","name":"Tattnall County","count":13,"lat":32.05995779692308,"lng":-82.04384378307692},{"href":"/county/lumpkin/","name":"Lumpkin County","count":13,"lat":34.52881563538462,"lng":-83.97124892153846},{"href":"/county/dawson/","name":"Dawson County","count":13,"lat":34.37345416769231,"lng":-84.06661048307693},{"href":"/county/jeff-davis/","name":"Jeff Davis County","count":13,"lat":31.867931805384618,"lng":-82.57385312615384},{"href":"/county/pickens/","name":"Pickens County","count":13,"lat":34.45722169076923,"lng":-84.42628244384615},{"href":"/county/appling/","name":"Appling County","count":12,"lat":31.77702967416666,"lng":-82.35830752166666},{"href":"/county/gordon/","name":"Gordon County","count":12,"lat":34.502679507500005,"lng":-84.89243316666666},{"href":"/county/mcintosh/","name":"McIntosh County","count":12,"lat":31.55053552,"lng":-81.36675516666666},{"href":"/county/pulaski/","name":"Pulaski County","count":12,"lat":32.2962284075,"lng":-83.49992561333332},{"href":"/county/macon/","name":"Macon County","count":12,"lat":32.33044846833334,"lng":-84.00788497916666},{"href":"/county/long/","name":"Long County","count":12,"lat":31.7554473875,"lng":-81.727609},{"href":"/county/habersham/","name":"Habersham County","count":11,"lat":34.64150966454545,"lng":-83.53874969454546},{"href":"/county/stephens/","name":"Stephens County","count":11,"lat":34.55026418545455,"lng":-83.28675495545454},{"href":"/county/brantley/","name":"Brantley County","count":11,"lat":31.271137758181816,"lng":-81.91452997272728},{"href":"/county/emanuel/","name":"Emanuel County","count":11,"lat":32.58781641181818,"lng":-82.26453607818182},{"href":"/county/white/","name":"White County","count":10,"lat":34.612489701,"lng":-83.72465286100001},{"href":"/county/jones/","name":"Jones County","count":10,"lat":32.987459563,"lng":-83.557189941},{"href":"/county/greene/","name":"Greene County","count":10,"lat":33.513146592,"lng":-83.204935457},{"href":"/county/upson/","name":"Upson County","count":10,"lat":32.89781723,"lng":-84.327998354},{"href":"/county/elbert/","name":"Elbert County","count":9,"lat":34.13403023666666,"lng":-82.88518354666667},{"href":"/county/towns/","name":"Towns County","count":9,"lat":34.95163091,"lng":-83.76691775777778},{"href":"/county/candler/","name":"Candler County","count":9,"lat":32.40801154333333,"lng":-82.03961012111112},{"href":"/county/wilkes/","name":"Wilkes County","count":9,"lat":33.73000844333333,"lng":-82.73326534777777},{"href":"/county/montgomery/","name":"Montgomery County","count":8,"lat":32.095582722500005,"lng":-82.54301834124999},{"href":"/county/murray/","name":"Murray County","count":8,"lat":34.78535366125,"lng":-84.81105232374999},{"href":"/county/dodge/","name":"Dodge County","count":8,"lat":32.192874431250004,"lng":-83.22247314500001},{"href":"/county/telfair/","name":"Telfair County","count":8,"lat":31.9970047475,"lng":-82.9060220725},{"href":"/county/lincoln/","name":"Lincoln County","count":8,"lat":33.80071926125001,"lng":-82.4509181975},{"href":"/county/hancock/","name":"Hancock County","count":8,"lat":33.264697075,"lng":-82.9888448725},{"href":"/county/atkinson/","name":"Atkinson County","count":7,"lat":31.320288521428573,"lng":-82.8937181757143},{"href":"/county/decatur/","name":"Decatur County","count":7,"lat":30.913410459999998,"lng":-84.57869829714286},{"href":"/county/morgan/","name":"Morgan County","count":7,"lat":33.579902104285715,"lng":-83.45621817428571},{"href":"/county/marion/","name":"Marion County","count":7,"lat":32.35897936,"lng":-84.52385820428572},{"href":"/county/dooly/","name":"Dooly County","count":7,"lat":32.153680528571435,"lng":-83.80370439857143},{"href":"/county/polk/","name":"Polk County","count":7,"lat":33.98583112285714,"lng":-85.06942204285714},{"href":"/county/irwin/","name":"Irwin County","count":7,"lat":31.608042852857142,"lng":-83.23122841857143},{"href":"/county/butts/","name":"Butts County","count":7,"lat":33.30277361142857,"lng":-83.96551513714287},{"href":"/county/dade/","name":"Dade County","count":7,"lat":34.839450837142856,"lng":-85.4829602942857},{"href":"/county/grady/","name":"Grady County","count":6,"lat":30.87957827166667,"lng":-84.18050130166667},{"href":"/county/evans/","name":"Evans County","count":6,"lat":32.14135996666666,"lng":-81.90505345666666},{"href":"/county/lanier/","name":"Lanier County","count":6,"lat":31.03980255,"lng":-83.10413614833334},{"href":"/county/screven/","name":"Screven County","count":6,"lat":32.613321938333335,"lng":-81.72279866333334},{"href":"/county/bacon/","name":"Bacon County","count":5,"lat":31.555743028000002,"lng":-82.457611084},{"href":"/county/terrell/","name":"Terrell County","count":5,"lat":31.777145386,"lng":-84.420460508},{"href":"/county/mitchell/","name":"Mitchell County","count":5,"lat":31.163545227999997,"lng":-84.17713775799999},{"href":"/county/madison/","name":"Madison County","count":5,"lat":34.077780152,"lng":-83.216436768},{"href":"/county/meriwether/","name":"Meriwether County","count":5,"lat":32.919686128,"lng":-84.616995238},{"href":"/county/clinch/","name":"Clinch County","count":5,"lat":31.062272262,"lng":-82.763041688},{"href":"/county/crawford/","name":"Crawford County","count":5,"lat":32.710886384,"lng":-83.96671753},{"href":"/county/jasper/","name":"Jasper County","count":5,"lat":33.300205996,"lng":-83.739289856},{"href":"/county/pike/","name":"Pike County","count":5,"lat":33.139556124,"lng":-84.347990418},{"href":"/county/worth/","name":"Worth County","count":5,"lat":31.633328249999998,"lng":-83.911808778},{"href":"/county/johnson/","name":"Johnson County","count":5,"lat":32.724569702,"lng":-82.73260192800001}],"zips":[{"href":"/zip/30809/","name":"30809 · Evans","count":39,"lat":33.54395088794872,"lng":-82.13920143282053},{"href":"/zip/30052/","name":"30052 · Loganville","count":37,"lat":33.84109167162162,"lng":-83.89933673756758},{"href":"/zip/31707/","name":"31707 · Albany","count":35,"lat":31.599908120285725,"lng":-84.20181775800002},{"href":"/zip/30907/","name":"30907 · Augusta","count":35,"lat":33.51092278628572,"lng":-82.093845912},{"href":"/zip/30339/","name":"30339 · Atlanta","count":34,"lat":33.8812849382353,"lng":-84.46829560235292},{"href":"/zip/31520/","name":"31520 · Brunswick","count":34,"lat":31.19326866411765,"lng":-81.49737459117645},{"href":"/zip/31322/","name":"31322 · Pooler","count":33,"lat":32.11364780666667,"lng":-81.26211594151515},{"href":"/zip/30071/","name":"30071 · Norcross","count":32,"lat":33.942829728125,"lng":-84.21062493375001},{"href":"/zip/30458/","name":"30458 · Statesboro","count":32,"lat":32.422692418749996,"lng":-81.79765916062499},{"href":"/zip/30040/","name":"30040 · Cumming","count":31,"lat":34.20404877225807,"lng":-84.16309307516131},{"href":"/zip/31313/","name":"31313 · Hinesville","count":31,"lat":31.831052596774192,"lng":-81.60915399451613},{"href":"/zip/30024/","name":"30024 · Suwanee","count":30,"lat":34.05618247966667,"lng":-84.08788808233332},{"href":"/zip/31701/","name":"31701 · Albany","count":29,"lat":31.58483768310345,"lng":-84.16612822517243},{"href":"/zip/31088/","name":"31088 · Warner Robins","count":29,"lat":32.58694510620689,"lng":-83.65909865827584},{"href":"/zip/30909/","name":"30909 · Augusta","count":28,"lat":33.4772657675,"lng":-82.07978057857146},{"href":"/zip/30518/","name":"30518 · Buford","count":28,"lat":34.120407785714285,"lng":-84.00214277071429},{"href":"/zip/31021/","name":"31021 · Dublin","count":28,"lat":32.52659961178572,"lng":-82.93007986857141},{"href":"/zip/31763/","name":"31763 · Leesburg","count":28,"lat":31.67004646714286,"lng":-84.19674328357142},{"href":"/zip/31061/","name":"31061 · Milledgeville","count":28,"lat":33.1177282325,"lng":-83.25002098178572},{"href":"/zip/30328/","name":"30328 · Atlanta","count":27,"lat":33.91901920444444,"lng":-84.37079931074074},{"href":"/zip/31522/","name":"31522 · St Simons Island","count":27,"lat":31.17296988851852,"lng":-81.38324341962962},{"href":"/zip/30004/","name":"30004 · Alpharetta","count":26,"lat":34.137854943461534,"lng":-84.2505528380769},{"href":"/zip/30318/","name":"30318 · Atlanta","count":26,"lat":33.79519917423077,"lng":-84.42691010615384},{"href":"/zip/30263/","name":"30263 · Newnan","count":26,"lat":33.37645105192308,"lng":-84.80488381038461},{"href":"/zip/31401/","name":"31401 · Savannah","count":26,"lat":32.06828278884615,"lng":-81.09490203846154},{"href":"/zip/31794/","name":"31794 · Tifton","count":26,"lat":31.44409084346154,"lng":-83.48667643615386},{"href":"/zip/30101/","name":"30101 · Acworth","count":25,"lat":34.0490005496,"lng":-84.69282409600001},{"href":"/zip/30067/","name":"30067 · Marietta","count":25,"lat":33.928570403600006,"lng":-84.49178924560002},{"href":"/zip/30060/","name":"30060 · Marietta","count":25,"lat":33.946429290400005,"lng":-84.54833740319998},{"href":"/zip/30813/","name":"30813 · Grovetown","count":24,"lat":33.46934461624999,"lng":-82.20967801416667},{"href":"/zip/31324/","name":"31324 · Richmond Hill","count":24,"lat":31.9170525075,"lng":-81.31181081208335},{"href":"/zip/31405/","name":"31405 · Savannah","count":24,"lat":32.050923825,"lng":-81.16227626791665},{"href":"/zip/31792/","name":"31792 · Thomasville","count":24,"lat":30.842241685,"lng":-83.99458726208333},{"href":"/zip/30188/","name":"30188 · Woodstock","count":24,"lat":34.1003961575,"lng":-84.48264916666669},{"href":"/zip/30005/","name":"30005 · Alpharetta","count":23,"lat":34.094141089130424,"lng":-84.2288815047826},{"href":"/zip/30144/","name":"30144 · Kennesaw","count":23,"lat":34.035833608260866,"lng":-84.60489223347825},{"href":"/zip/31525/","name":"31525 · Brunswick","count":22,"lat":31.236515304545456,"lng":-81.48464931000001},{"href":"/zip/30115/","name":"30115 · Canton","count":22,"lat":34.19685814727273,"lng":-84.44300668863637},{"href":"/zip/30269/","name":"30269 · Peachtree City","count":22,"lat":33.390300752272736,"lng":-84.57110907772727},{"href":"/zip/31545/","name":"31545 · Jesup","count":21,"lat":31.62357057857142,"lng":-81.90110124809523},{"href":"/zip/30253/","name":"30253 · Mcdonough","count":21,"lat":33.44210742809524,"lng":-84.17340015380954},{"href":"/zip/31069/","name":"31069 · Perry","count":21,"lat":32.468289511428566,"lng":-83.72994341142856},{"href":"/zip/30281/","name":"30281 · Stockbridge","count":21,"lat":33.50149408952382,"lng":-84.26924024333333},{"href":"/zip/31705/","name":"31705 · Albany","count":20,"lat":31.5708271985,"lng":-84.0906894675},{"href":"/zip/31210/","name":"31210 · Macon","count":20,"lat":32.904482460000004,"lng":-83.71413268949999},{"href":"/zip/31326/","name":"31326 · Rincon","count":20,"lat":32.291950798,"lng":-81.23222847049999},{"href":"/zip/30341/","name":"30341 · Atlanta","count":19,"lat":33.895866392631575,"lng":-84.29608073894737},{"href":"/zip/31008/","name":"31008 · Byron","count":19,"lat":32.63708636631579,"lng":-83.74897886578945},{"href":"/zip/30157/","name":"30157 · Dallas","count":19,"lat":33.78729860263159,"lng":-84.72052162578947},{"href":"/zip/30214/","name":"30214 · Fayetteville","count":19,"lat":33.503824333684214,"lng":-84.44882443052632},{"href":"/zip/30248/","name":"30248 · Locust Grove","count":19,"lat":33.35065781368421,"lng":-84.12662506052631},{"href":"/zip/31503/","name":"31503 · Waycross","count":19,"lat":31.21968701,"lng":-82.36051539263158},{"href":"/zip/30043/","name":"30043 · Lawrenceville","count":18,"lat":34.006921768333335,"lng":-83.9943305127778},{"href":"/zip/30127/","name":"30127 · Powder Springs","count":18,"lat":33.88112047,"lng":-84.68622843444444},{"href":"/zip/30736/","name":"30736 · Ringgold","count":18,"lat":34.92435349388888,"lng":-85.15441513055556},{"href":"/zip/30075/","name":"30075 · Roswell","count":18,"lat":34.03475888611112,"lng":-84.36482789722223},{"href":"/zip/30474/","name":"30474 · Vidalia","count":18,"lat":32.22472699555555,"lng":-82.40209113222221},{"href":"/zip/31093/","name":"31093 · Warner Robins","count":18,"lat":32.63093545611111,"lng":-83.64703496388887},{"href":"/zip/31302/","name":"31302 · Bloomingdale","count":17,"lat":32.10964561882353,"lng":-81.31846708411766},{"href":"/zip/30114/","name":"30114 · Canton","count":17,"lat":34.23902422,"lng":-84.50288076941176},{"href":"/zip/31904/","name":"31904 · Columbus","count":17,"lat":32.514500561176476,"lng":-84.97261092235293},{"href":"/zip/31907/","name":"31907 · Columbus","count":17,"lat":32.48253452117647,"lng":-84.91332603882354},{"href":"/zip/30019/","name":"30019 · Dacula","count":17,"lat":33.99375040352941,"lng":-83.8863592717647},{"href":"/zip/30540/","name":"30540 · East Ellijay","count":17,"lat":34.67568722823529,"lng":-84.51269486294117},{"href":"/zip/31024/","name":"31024 · Eatonton","count":17,"lat":33.311893912352936,"lng":-83.31095257882353},{"href":"/zip/30224/","name":"30224 · Griffin","count":17,"lat":33.21482422705883,"lng":-84.25820877941176},{"href":"/zip/30076/","name":"30076 · Roswell","count":17,"lat":34.03898171823529,"lng":-84.32602063235294},{"href":"/zip/30349/","name":"30349 · Atlanta","count":16,"lat":33.627225159374994,"lng":-84.482162953125},{"href":"/zip/30901/","name":"30901 · Augusta","count":16,"lat":33.467963695624995,"lng":-81.96575021749999},{"href":"/zip/30041/","name":"30041 · Cumming","count":16,"lat":34.17364120562501,"lng":-84.13255739125002},{"href":"/zip/31548/","name":"31548 · Kingsland","count":16,"lat":30.797629834375,"lng":-81.67460250874998},{"href":"/zip/31201/","name":"31201 · Macon","count":16,"lat":32.83128070875,"lng":-83.62951231},{"href":"/zip/30084/","name":"30084 · Tucker","count":16,"lat":33.85233044625,"lng":-84.21838474312499},{"href":"/zip/30009/","name":"30009 · Alpharetta","count":15,"lat":34.06498031666667,"lng":-84.28905283533335},{"href":"/zip/30340/","name":"30340 · Atlanta","count":15,"lat":33.90294418333334,"lng":-84.25911204066666},{"href":"/zip/30326/","name":"30326 · Atlanta","count":15,"lat":33.84882583600001,"lng":-84.36424611333332},{"href":"/zip/30350/","name":"30350 · Atlanta","count":15,"lat":33.98504892933333,"lng":-84.34855092466665},{"href":"/zip/30680/","name":"30680 · Bethlehem","count":15,"lat":33.991116842,"lng":-83.74335886666667},{"href":"/zip/30512/","name":"30512 · Blairsville","count":15,"lat":34.875785574666665,"lng":-83.99712219266667},{"href":"/zip/31535/","name":"31535 · Douglas","count":15,"lat":31.482261148666666,"lng":-82.86699829000001},{"href":"/zip/30135/","name":"30135 · Douglasville","count":15,"lat":33.723943328666664,"lng":-84.70196024533334},{"href":"/zip/30542/","name":"30542 · Flowery Branch","count":15,"lat":34.183456166000006,"lng":-83.89431203066667},{"href":"/zip/30501/","name":"30501 · Gainesville","count":15,"lat":34.29418156933333,"lng":-83.830554708},{"href":"/zip/30046/","name":"30046 · Lawrenceville","count":15,"lat":33.95216420533334,"lng":-83.98675638799999},{"href":"/zip/31204/","name":"31204 · Macon","count":15,"lat":32.843102774,"lng":-83.67661895733335},{"href":"/zip/30092/","name":"30092 · Norcross","count":15,"lat":33.96842931,"lng":-84.22502339733335},{"href":"/zip/31407/","name":"31407 · Port Wentworth","count":15,"lat":32.181998698,"lng":-81.21834259133334},{"href":"/zip/31601/","name":"31601 · Valdosta","count":15,"lat":30.83125406866667,"lng":-83.29017639199999},{"href":"/zip/31602/","name":"31602 · Valdosta","count":15,"lat":30.86902376866667,"lng":-83.29078165666667},{"href":"/zip/31721/","name":"31721 · Albany","count":14,"lat":31.582379341428574,"lng":-84.22941752714287},{"href":"/zip/30324/","name":"30324 · Atlanta","count":14,"lat":33.818016325,"lng":-84.36404745928573},{"href":"/zip/30904/","name":"30904 · Augusta","count":14,"lat":33.468513487857145,"lng":-82.02003152},{"href":"/zip/30120/","name":"30120 · Cartersville","count":14,"lat":34.16930389428571,"lng":-84.81576756071429},{"href":"/zip/31909/","name":"31909 · Columbus","count":14,"lat":32.53001349428571,"lng":-84.92327499357144},{"href":"/zip/30028/","name":"30028 · Cumming","count":14,"lat":34.27703939142857,"lng":-84.17970984285714},{"href":"/zip/30721/","name":"30721 · Dalton","count":14,"lat":34.78397015214286,"lng":-84.94964490642857},{"href":"/zip/30097/","name":"30097 · Duluth","count":14,"lat":34.014082772857144,"lng":-84.14068549071429},{"href":"/zip/31408/","name":"31408 · Garden City","count":14,"lat":32.09460231214286,"lng":-81.19091633428572},{"href":"/zip/30265/","name":"30265 · Newnan","count":14,"lat":33.38555172642857,"lng":-84.7170464642857},{"href":"/zip/30549/","name":"30549 · Arcade","count":13,"lat":34.10297716615384,"lng":-83.61028935153846},{"href":"/zip/31523/","name":"31523 · Brunswick","count":13,"lat":31.23225520230769,"lng":-81.56367258},{"href":"/zip/30012/","name":"30012 · Conyers","count":13,"lat":33.68564283,"lng":-84.03667039076923},{"href":"/zip/31015/","name":"31015 · Cordele","count":13,"lat":31.974457227692305,"lng":-83.7690793546154},{"href":"/zip/30533/","name":"30533 · Dahlonega","count":13,"lat":34.52881563538462,"lng":-83.97124892153846},{"href":"/zip/30132/","name":"30132 · Dallas","count":13,"lat":33.96731948923077,"lng":-84.81191136307692},{"href":"/zip/30720/","name":"30720 · Dalton","count":13,"lat":34.76986371461538,"lng":-84.98193887538461},{"href":"/zip/30534/","name":"30534 · Dawsonville","count":13,"lat":34.37345416769231,"lng":-84.06661048307693},{"href":"/zip/30134/","name":"30134 · Douglasville","count":13,"lat":33.760948180769226,"lng":-84.75180229769232},{"href":"/zip/30213/","name":"30213 · Fairburn","count":13,"lat":33.56083855307692,"lng":-84.59552941},{"href":"/zip/31312/","name":"31312 · Guyton","count":13,"lat":32.24133594230769,"lng":-81.3381558923077},{"href":"/zip/31539/","name":"31539 · Hazlehurst","count":13,"lat":31.867931805384618,"lng":-82.57385312615384},{"href":"/zip/30728/","name":"30728 · LaFayette","count":13,"lat":34.71975766769231,"lng":-85.23691852307692},{"href":"/zip/31206/","name":"31206 · Macon","count":13,"lat":32.80658399307692,"lng":-83.6904232323077},{"href":"/zip/30252/","name":"30252 · Mcdonough","count":13,"lat":33.45640798615385,"lng":-84.10462012538461},{"href":"/zip/31788/","name":"31788 · Moultrie","count":13,"lat":31.14089276153846,"lng":-83.72353069461539},{"href":"/zip/30080/","name":"30080 · Smyrna","count":13,"lat":33.87135725769231,"lng":-84.50515453615387},{"href":"/zip/30461/","name":"30461 · Statesboro","count":13,"lat":32.48155036461538,"lng":-81.75659884000001},{"href":"/zip/30180/","name":"30180 · Villa Rica","count":13,"lat":33.739832073076926,"lng":-84.91208942230767},{"href":"/zip/30022/","name":"30022 · Alpharetta","count":12,"lat":34.035951931666666,"lng":-84.276649475},{"href":"/zip/31516/","name":"31516 · Blackshear","count":12,"lat":31.279982248333326,"lng":-82.26579221166666},{"href":"/zip/30513/","name":"30513 · Blue Ridge","count":12,"lat":34.873422622499994,"lng":-84.33664512416665},{"href":"/zip/30013/","name":"30013 · Conyers","count":12,"lat":33.64040692583333,"lng":-83.98523076416666},{"href":"/zip/31750/","name":"31750 · Fitzgerald","count":12,"lat":31.72343142833334,"lng":-83.24569956416666},{"href":"/zip/31632/","name":"31632 · Hahira","count":12,"lat":30.98054107,"lng":-83.37196286499999},{"href":"/zip/30143/","name":"30143 · Jasper","count":12,"lat":34.449535051666665,"lng":-84.4274590825},{"href":"/zip/31047/","name":"31047 · Kathleen","count":12,"lat":32.52671718583334,"lng":-83.64053598916665},{"href":"/zip/30241/","name":"30241 · LaGrange","count":12,"lat":33.03091335333334,"lng":-84.99825731833333},{"href":"/zip/30824/","name":"30824 · Thomson","count":12,"lat":33.49914360083334,"lng":-82.49368413166667},{"href":"/zip/31501/","name":"31501 · Waycross","count":12,"lat":31.218384585,"lng":-82.35568618666666},{"href":"/zip/31513/","name":"31513 · Baxley","count":11,"lat":31.77855526454545,"lng":-82.35865714454545},{"href":"/zip/30117/","name":"30117 · Carrollton","count":11,"lat":33.58184988,"lng":-85.08702781000001},{"href":"/zip/30094/","name":"30094 · Conyers","count":11,"lat":33.63950209181818,"lng":-84.03255670818181},{"href":"/zip/30096/","name":"30096 · Duluth","count":11,"lat":33.979068062727265,"lng":-84.12887018454545},{"href":"/zip/30228/","name":"30228 · Hampton","count":11,"lat":33.43090681727273,"lng":-84.29437047818182},{"href":"/zip/31316/","name":"31316 · Ludowici","count":11,"lat":31.759076898181817,"lng":-81.72598266727272},{"href":"/zip/30260/","name":"30260 · Morrow","count":11,"lat":33.583028967272725,"lng":-84.33892752999999},{"href":"/zip/30093/","name":"30093 · Norcross","count":11,"lat":33.92085231363637,"lng":-84.17562866090908},{"href":"/zip/30741/","name":"30741 · Rossville","count":11,"lat":34.96201185727273,"lng":-85.26307123272727},{"href":"/zip/31082/","name":"31082 · Sandersville","count":11,"lat":32.98532278,"lng":-82.81401755636364},{"href":"/zip/30078/","name":"30078 · Snellville","count":11,"lat":33.86156949090909,"lng":-84.01195734090908},{"href":"/zip/30290/","name":"30290 · Tyrone","count":11,"lat":33.474951657272726,"lng":-84.59207153363637},{"href":"/zip/30677/","name":"30677 · Watkinsville","count":11,"lat":33.844562531818184,"lng":-83.51233603818183},{"href":"/zip/30606/","name":"30606 · Athens","count":10,"lat":33.932293321,"lng":-83.427551271},{"href":"/zip/30305/","name":"30305 · Atlanta","count":10,"lat":33.826482391,"lng":-84.37694931099999},{"href":"/zip/30622/","name":"30622 · Bogart","count":10,"lat":33.940592575000004,"lng":-83.519725035},{"href":"/zip/31005/","name":"31005 · Bonaire","count":10,"lat":32.55526428200001,"lng":-83.625071717},{"href":"/zip/30517/","name":"30517 · Braselton","count":10,"lat":34.11861,"lng":-83.790440369},{"href":"/zip/31901/","name":"31901 · Columbus","count":10,"lat":32.46875267,"lng":-84.98411788899999},{"href":"/zip/30030/","name":"30030 · Decatur","count":10,"lat":33.775178528,"lng":-84.28660965099999},{"href":"/zip/31027/","name":"31027 · Dublin","count":10,"lat":32.570858384,"lng":-82.80627670300001},{"href":"/zip/31030/","name":"31030 · Fort Valley","count":10,"lat":32.55754814200001,"lng":-83.823351287},{"href":"/zip/30506/","name":"30506 · Gainesville","count":10,"lat":34.329620362,"lng":-83.94787292500001},{"href":"/zip/31032/","name":"31032 · Gray","count":10,"lat":32.987459563,"lng":-83.557189941},{"href":"/zip/31036/","name":"31036 · Hawkinsville","count":10,"lat":32.298933791,"lng":-83.50699615399999},{"href":"/zip/30548/","name":"30548 · Hoschton","count":10,"lat":34.083000565,"lng":-83.75426254300001},{"href":"/zip/30240/","name":"30240 · LaGrange","count":10,"lat":33.034202196,"lng":-85.02976150399999},{"href":"/zip/30045/","name":"30045 · Lawrenceville","count":10,"lat":33.941437147,"lng":-83.93901367099998},{"href":"/zip/30058/","name":"30058 · Lithonia","count":10,"lat":33.731467054999996,"lng":-84.11490783599999},{"href":"/zip/31217/","name":"31217 · Macon","count":10,"lat":32.851654053,"lng":-83.53643951400001},{"href":"/zip/31320/","name":"31320 · Midway","count":10,"lat":31.796345902000002,"lng":-81.36699295000001},{"href":"/zip/30655/","name":"30655 · Monroe","count":10,"lat":33.796575545,"lng":-83.721663667},{"href":"/zip/31639/","name":"31639 · Nashville","count":10,"lat":31.188852119,"lng":-83.223054504},{"href":"/zip/31404/","name":"31404 · Savannah","count":10,"lat":32.040366363000004,"lng":-81.06847763099998},{"href":"/zip/30286/","name":"30286 · Thomaston","count":10,"lat":32.89781723,"lng":-84.327998354},{"href":"/zip/30342/","name":"30342 · Atlanta","count":9,"lat":33.89285786888889,"lng":-84.37142266222222},{"href":"/zip/30308/","name":"30308 · Atlanta","count":9,"lat":33.76828426555556,"lng":-84.38381279888888},{"href":"/zip/30331/","name":"30331 · Atlanta","count":9,"lat":33.69921196666667,"lng":-84.54056549111111},{"href":"/zip/30107/","name":"30107 · Ball Ground","count":9,"lat":34.33584043777777,"lng":-84.35631476444443},{"href":"/zip/30519/","name":"30519 · Buford","count":9,"lat":34.07982508333333,"lng":-83.95135922},{"href":"/zip/30701/","name":"30701 · Calhoun","count":9,"lat":34.49382570111111,"lng":-84.94488271111112},{"href":"/zip/30014/","name":"30014 · Covington","count":9,"lat":33.60167651888889,"lng":-83.86155870333334},{"href":"/zip/30635/","name":"30635 · Elberton","count":9,"lat":34.13403023666666,"lng":-82.88518354666667},{"href":"/zip/30044/","name":"30044 · Lawrenceville","count":9,"lat":33.928749932222225,"lng":-84.0690494088889},{"href":"/zip/30062/","name":"30062 · Marietta","count":9,"lat":34.001869202222224,"lng":-84.48300001444444},{"href":"/zip/30165/","name":"30165 · Rome","count":9,"lat":34.28324932555555,"lng":-85.1977632311111},{"href":"/zip/30276/","name":"30276 · Senoia","count":9,"lat":33.30762057888889,"lng":-84.57464938666665},{"href":"/zip/30277/","name":"30277 · Sharpsburg","count":9,"lat":33.36712434555555,"lng":-84.65399594000002},{"href":"/zip/31605/","name":"31605 · Valdosta","count":9,"lat":30.920467164444442,"lng":-83.24681176},{"href":"/zip/30673/","name":"30673 · Washington","count":9,"lat":33.73000844333333,"lng":-82.73326534777777},{"href":"/zip/30189/","name":"30189 · Woodstock","count":9,"lat":34.11299811444445,"lng":-84.56866285444444},{"href":"/zip/31620/","name":"31620 · Adel","count":8,"lat":31.118729115,"lng":-83.43135356875},{"href":"/zip/31709/","name":"31709 · Americus","count":8,"lat":32.07098150125,"lng":-84.19678783125002},{"href":"/zip/30802/","name":"30802 · Appling","count":8,"lat":33.587447167499995,"lng":-82.34139728624999},{"href":"/zip/30605/","name":"30605 · Athens","count":8,"lat":33.94581556375,"lng":-83.36325454749999},{"href":"/zip/30319/","name":"30319 · Atlanta","count":8,"lat":33.8639645575,"lng":-84.33810233999999},{"href":"/zip/30344/","name":"30344 · Atlanta","count":8,"lat":33.66644334750001,"lng":-84.465703965},{"href":"/zip/30168/","name":"30168 · Austell","count":8,"lat":33.78596115125,"lng":-84.58887004875},{"href":"/zip/30126/","name":"30126 · Austell","count":8,"lat":33.81599998625,"lng":-84.54761600625},{"href":"/zip/30705/","name":"30705 · Chatsworth","count":8,"lat":34.78535366125,"lng":-84.81105232374999},{"href":"/zip/31533/","name":"31533 · Douglas","count":8,"lat":31.50620198125,"lng":-82.857349395},{"href":"/zip/31029/","name":"31029 · Forsyth","count":8,"lat":33.069881438749995,"lng":-83.95224094624999},{"href":"/zip/30642/","name":"30642 · Greensboro","count":8,"lat":33.5001211175,"lng":-83.21181202124998},{"href":"/zip/30546/","name":"30546 · Hiawassee","count":8,"lat":34.956244945,"lng":-83.75496578125},{"href":"/zip/30817/","name":"30817 · Lincolnton","count":8,"lat":33.80071926125001,"lng":-82.4509181975},{"href":"/zip/30066/","name":"30066 · Marietta","count":8,"lat":34.0253639225,"lng":-84.51808261875},{"href":"/zip/31063/","name":"31063 · Montezuma","count":8,"lat":32.29762411,"lng":-83.995407105},{"href":"/zip/31768/","name":"31768 · Moultrie","count":8,"lat":31.18795895625,"lng":-83.79249954125001},{"href":"/zip/31321/","name":"31321 · Pembroke","count":8,"lat":32.20361184875,"lng":-81.66394329125},{"href":"/zip/31415/","name":"31415 · Savannah","count":8,"lat":32.07941246,"lng":-81.13321495125},{"href":"/zip/31419/","name":"31419 · Savannah","count":8,"lat":32.0028941625,"lng":-81.2532358175},{"href":"/zip/31558/","name":"31558 · St Marys","count":8,"lat":30.77063155125,"lng":-81.57405567125},{"href":"/zip/30087/","name":"30087 · Stone Mountain","count":8,"lat":33.81475353375,"lng":-84.12283038999999},{"href":"/zip/30102/","name":"30102 · Acworth","count":7,"lat":34.09546334428572,"lng":-84.60832977285715},{"href":"/zip/30307/","name":"30307 · Atlanta","count":7,"lat":33.76015581285715,"lng":-84.34329659571429},{"href":"/zip/30312/","name":"30312 · Atlanta","count":7,"lat":33.74482236428571,"lng":-84.37760162428572},{"href":"/zip/30121/","name":"30121 · Cartersville","count":7,"lat":34.20784051142858,"lng":-84.79767499714286},{"href":"/zip/30523/","name":"30523 · Clarkesville","count":7,"lat":34.684846061428566,"lng":-83.55588858428571},{"href":"/zip/30528/","name":"30528 · Cleveland","count":7,"lat":34.58056313714285,"lng":-83.73469543428573},{"href":"/zip/30504/","name":"30504 · Gainesville","count":7,"lat":34.26276506714286,"lng":-83.86249651428571},{"href":"/zip/31031/","name":"31031 · Gordon","count":7,"lat":32.90082768142857,"lng":-83.30927930714286},{"href":"/zip/30814/","name":"30814 · Harlem","count":7,"lat":33.42256927571428,"lng":-82.31100790714287},{"href":"/zip/30236/","name":"30236 · Jonesboro","count":7,"lat":33.513652255714284,"lng":-84.35057176857143},{"href":"/zip/30047/","name":"30047 · Lilburn","count":7,"lat":33.88617706285714,"lng":-84.12720489428571},{"href":"/zip/31211/","name":"31211 · Macon","count":7,"lat":32.86985124857143,"lng":-83.59653691000001},{"href":"/zip/30068/","name":"30068 · Marietta","count":7,"lat":33.96643665571428,"lng":-84.44152287142856},{"href":"/zip/31554/","name":"31554 · Nicholls","count":7,"lat":31.517043522857144,"lng":-82.63581194285715},{"href":"/zip/30268/","name":"30268 · Palmetto","count":7,"lat":33.516239711428575,"lng":-84.66947936999999},{"href":"/zip/31557/","name":"31557 · Patterson","count":7,"lat":31.397997992857142,"lng":-82.12324196857142},{"href":"/zip/31331/","name":"31331 · Shellman Bluff","count":7,"lat":31.571483067142857,"lng":-81.33532823714286},{"href":"/zip/30401/","name":"30401 · Swainsboro","count":7,"lat":32.589848655714285,"lng":-82.32774898142858},{"href":"/zip/31757/","name":"31757 · Thomasville","count":7,"lat":30.883770534285713,"lng":-83.93700953857144},{"href":"/zip/31793/","name":"31793 · Tifton","count":7,"lat":31.40983745,"lng":-83.5609185357143},{"href":"/zip/30291/","name":"30291 · Union City","count":7,"lat":33.58098929285715,"lng":-84.54397037857143},{"href":"/zip/30601/","name":"30601 · Athens","count":6,"lat":33.965147655,"lng":-83.388515475},{"href":"/zip/30338/","name":"30338 · Atlanta","count":6,"lat":33.93501599666667,"lng":-84.31323623499999},{"href":"/zip/30329/","name":"30329 · Atlanta","count":6,"lat":33.839865368333335,"lng":-84.318279265},{"href":"/zip/30354/","name":"30354 · Atlanta","count":6,"lat":33.657609305,"lng":-84.40595626666668},{"href":"/zip/30336/","name":"30336 · Atlanta","count":6,"lat":33.75509198333333,"lng":-84.540911355},{"href":"/zip/30360/","name":"30360 · Atlanta","count":6,"lat":33.92621930333333,"lng":-84.26988856000001},{"href":"/zip/30906/","name":"30906 · Augusta","count":6,"lat":33.425798414999996,"lng":-82.054009755},{"href":"/zip/30106/","name":"30106 · Austell","count":6,"lat":33.833410259999994,"lng":-84.63989003500001},{"href":"/zip/30233/","name":"30233 · Jackson","count":6,"lat":33.3050162,"lng":-83.96467971833334},{"href":"/zip/30152/","name":"30152 · Kennesaw","count":6,"lat":34.00221761,"lng":-84.62272898333333},{"href":"/zip/31635/","name":"31635 · Lakeland","count":6,"lat":31.03980255,"lng":-83.10413614833334},{"href":"/zip/30064/","name":"30064 · Marietta","count":6,"lat":33.92031224666666,"lng":-84.60923894333332},{"href":"/zip/30439/","name":"30439 · Metter","count":6,"lat":32.40918286666666,"lng":-82.04234949666666},{"href":"/zip/31510/","name":"31510 · Alma","count":5,"lat":31.555743028000002,"lng":-82.457611084},{"href":"/zip/30315/","name":"30315 · Atlanta","count":5,"lat":33.773004914,"lng":-84.41236725},{"href":"/zip/30327/","name":"30327 · Atlanta","count":5,"lat":33.857354736,"lng":-84.42115630999999},{"href":"/zip/30306/","name":"30306 · Atlanta","count":5,"lat":33.794380952000004,"lng":-84.35068512000001},{"href":"/zip/30303/","name":"30303 · Atlanta","count":5,"lat":33.757077026000005,"lng":-84.389384462},{"href":"/zip/31803/","name":"31803 · Buena Vista","count":5,"lat":32.315429686,"lng":-84.51948394600001},{"href":"/zip/39828/","name":"39828 · Cairo","count":5,"lat":30.867127607999997,"lng":-84.179429626},{"href":"/zip/30707/","name":"30707 · Chickamauga","count":5,"lat":34.87780532800001,"lng":-85.293769836},{"href":"/zip/30417/","name":"30417 · Claxton","count":5,"lat":32.137240602000006,"lng":-81.90931244},{"href":"/zip/31329/","name":"31329 · Clyo","count":5,"lat":32.378263854,"lng":-81.3065094},{"href":"/zip/31906/","name":"31906 · Columbus","count":5,"lat":32.46908722,"lng":-84.946209718},{"href":"/zip/31903/","name":"31903 · Columbus","count":5,"lat":32.427159882,"lng":-84.953723148},{"href":"/zip/31808/","name":"31808 · Columbus","count":5,"lat":32.614729308,"lng":-84.971328736},{"href":"/zip/30033/","name":"30033 · Decatur","count":5,"lat":33.811115268,"lng":-84.29168548800001},{"href":"/zip/31023/","name":"31023 · Eastman","count":5,"lat":32.20651092600001,"lng":-83.183944702},{"href":"/zip/31308/","name":"31308 · Ellabell","count":5,"lat":32.161094664000004,"lng":-81.507400512},{"href":"/zip/30294/","name":"30294 · Ellenwood","count":5,"lat":33.61877594,"lng":-84.234477234},{"href":"/zip/30507/","name":"30507 · Gainesville","count":5,"lat":34.264128876,"lng":-83.78622284},{"href":"/zip/30427/","name":"30427 · Glennville","count":5,"lat":31.920047376000003,"lng":-81.92205505199999},{"href":"/zip/30223/","name":"30223 · Griffin","count":5,"lat":33.285050202,"lng":-84.2748291},{"href":"/zip/30141/","name":"30141 · Hiram","count":5,"lat":33.885353088,"lng":-84.75433502199999},{"href":"/zip/31634/","name":"31634 · Homerville","count":5,"lat":31.062272262,"lng":-82.763041688},{"href":"/zip/30238/","name":"30238 · Jonesboro","count":5,"lat":33.516750336,"lng":-84.37792968599999},{"href":"/zip/31220/","name":"31220 · Macon","count":5,"lat":32.851325988,"lng":-83.76755370800001},{"href":"/zip/31216/","name":"31216 · Macon","count":5,"lat":32.74233856400001,"lng":-83.67781829799999},{"href":"/zip/30650/","name":"30650 · Madison","count":5,"lat":33.608450317999996,"lng":-83.49515686},{"href":"/zip/31064/","name":"31064 · Monticello","count":5,"lat":33.300205996,"lng":-83.739289856},{"href":"/zip/31645/","name":"31645 · Ray City","count":5,"lat":31.060124206,"lng":-83.203308106},{"href":"/zip/30153/","name":"30153 · Rockmart","count":5,"lat":33.977709196,"lng":-85.03803863800002},{"href":"/zip/30161/","name":"30161 · Rome","count":5,"lat":34.225833894,"lng":-85.170599364},{"href":"/zip/30467/","name":"30467 · Sylvania","count":5,"lat":32.587231444,"lng":-81.73864593200001},{"href":"/zip/30577/","name":"30577 · Toccoa","count":5,"lat":34.575751493999995,"lng":-83.316313172},{"href":"/zip/31096/","name":"31096 · Wrightsville","count":5,"lat":32.724569702,"lng":-82.73260192800001}]}